[{"province": "VA", "city": "Virginia Beach", "longitude": -75.98443, "reviews.rating": 2.7875, "Joy": 0.7039894318, "Sadness": 0.6580172222, "name": "Ambassadors Inn and Suites", "Analytical": 0.7568717037, "Fear": 0.5887075, "country": "US", "address": "716 21st St", "Anger": 0.5916295, "Tentative": 0.7995348095, "Confident": 0.83334135, "latitude": 36.84766}, {"province": "TX", "city": "Mont Belvieu", "longitude": -86.84786, "reviews.rating": 4.0769230769, "Joy": 0.7959305833, "Sadness": 0.515428, "name": "Azul Beach Hotel By Karisma Gourmet Inclusive", "Analytical": 0.68677275, "Fear": 0.0, "country": "US", "address": "Carretera Cancun", "Anger": 0.0, "Tentative": 0.7377625, "Confident": 0.7760717778, "latitude": 20.90572}, {"province": "TX", "city": "Grand Prairie", "longitude": -97.06028, "reviews.rating": 4.3103448276, "Joy": 0.7334371915, "Sadness": 0.654352, "name": "Best Western Plus Arlington North Hotel and Suites", "Analytical": 0.6553532308, "Fear": 0.587957, "country": "US", "address": "2075 N Us State Nighway 360", "Anger": 0.5947495, "Tentative": 0.7747996, "Confident": 0.8674438077, "latitude": 32.783764}, {"province": "MT", "city": "Whitefish", "longitude": -114.335838, "reviews.rating": 3.9459459459, "Joy": 0.7151812812, "Sadness": 0.578346, "name": "Big Mountain Lodge", "Analytical": 0.7029394615, "Fear": 0.0, "country": "US", "address": "6390 Us Highway 93 S", "Anger": 0.0, "Tentative": 0.71396875, "Confident": 0.8994518571, "latitude": 48.391121}, {"province": "Blng Spg Lks", "city": "Southport", "longitude": -78.0521, "reviews.rating": 3.8545454545, "Joy": 0.7184011081, "Sadness": 0.585422875, "name": "Comfort Suites Southport", "Analytical": 0.7002441429, "Fear": 0.611569, "country": "US", "address": "4963 Southport Supply Rd", "Anger": 0.62342125, "Tentative": 0.7828913684, "Confident": 0.8597411818, "latitude": 33.9534}, {"province": "Onigum", "city": "Walker", "longitude": -94.57172, "reviews.rating": 4.472972973, "Joy": 0.7608502698, "Sadness": 0.5711515, "name": "Country Inn Walker", "Analytical": 0.6495088182, "Fear": 0.500734, "country": "US", "address": "442 Walker Bay Blvd", "Anger": 0.625765, "Tentative": 0.7471038, "Confident": 0.8548361471, "latitude": 47.09124}, {"province": "CA", "city": "Barstow", "longitude": -117.00283, "reviews.rating": 3.5, "Joy": 0.7003766667, "Sadness": 0.0, "name": "Days Inn Barstow", "Analytical": 0.596122, "Fear": 0.0, "country": "US", "address": "1590 Cool Water Ln", "Anger": 0.0, "Tentative": 0.9323765, "Confident": 0.8211365, "latitude": 34.89095}, {"province": "Bull Creek Village", "city": "Branson", "longitude": -93.26739, "reviews.rating": 3.8235294118, "Joy": 0.7133313947, "Sadness": 0.607572, "name": "Days Inn Branson / Near The Strip", "Analytical": 0.7081104286, "Fear": 0.557307, "country": "US", "address": "2316 Shepherd", "Anger": 0.7079335, "Tentative": 0.7942959375, "Confident": 0.9123051429, "latitude": 36.65133}, {"province": "SD", "city": "Brookings", "longitude": -96.76286, "reviews.rating": 2.6041666667, "Joy": 0.6327150741, "Sadness": 0.578667875, "name": "Days Inn Brookings", "Analytical": 0.7623693182, "Fear": 0.600569, "country": "US", "address": "2500 6th St", "Anger": 0.5834026667, "Tentative": 0.8258778095, "Confident": 0.8732291667, "latitude": 44.31141}, {"province": "OK", "city": "El Reno", "longitude": -97.97284, "reviews.rating": 2.8461538462, "Joy": 0.6996375833, "Sadness": 0.5432135, "name": "Days Inn El Reno Ok", "Analytical": 0.640698375, "Fear": 0.694168, "country": "US", "address": "2700 S Country Club Rd", "Anger": 0.5677946667, "Tentative": 0.764603125, "Confident": 0.8498478889, "latitude": 35.50517}, {"province": "PA", "city": "Warren", "longitude": -79.16931, "reviews.rating": 3.8217821782, "Joy": 0.7165115526, "Sadness": 0.5690175714, "name": "Days Inn Warren", "Analytical": 0.7075918947, "Fear": 0.692165, "country": "US", "address": "210 Ludlow St", "Anger": 0.6079513333, "Tentative": 0.7764938077, "Confident": 0.7972015116, "latitude": 41.83631}, {"province": "IN", "city": "Merrillville", "longitude": -87.329978, "reviews.rating": 1.5714285714, "Joy": 0.5799775, "Sadness": 0.6197645, "name": "Deluxe Inn Merrillville", "Analytical": 0.861624, "Fear": 0.569995, "country": "US", "address": "732 E 82nd Ave", "Anger": 0.600202, "Tentative": 0.7467905, "Confident": 0.0, "latitude": 41.469446}, {"province": "FL", "city": "West Palm Beach", "longitude": -80.072864, "reviews.rating": 4.1771653543, "Joy": 0.7362477865, "Sadness": 0.6289456667, "name": "Doubletree By Hilton West Palm Beach Airport", "Analytical": 0.6900480753, "Fear": 0.6213976, "country": "US", "address": "1808 S Australian Ave", "Anger": 0.6049605, "Tentative": 0.7322878793, "Confident": 0.8176238261, "latitude": 26.697607}, {"province": "MO", "city": "St. Robert", "longitude": -92.14079, "reviews.rating": 3.125, "Joy": 0.6826093636, "Sadness": 0.6734103333, "name": "Econo Lodge St Robert", "Analytical": 0.6403463333, "Fear": 0.599931, "country": "US", "address": "309 Highway Z", "Anger": 0.687581, "Tentative": 0.73899625, "Confident": 0.901995, "latitude": 37.8228}, {"province": "SC", "city": "Dillon", "longitude": -79.36981, "reviews.rating": 1.8461538462, "Joy": 0.6034981667, "Sadness": 0.59656025, "name": "Economy Inn", "Analytical": 0.6722668, "Fear": 0.0, "country": "US", "address": "1223 Radford Blvd", "Anger": 0.532542, "Tentative": 0.7939119167, "Confident": 0.841219625, "latitude": 34.43614}, {"province": "IL", "city": "Westmont", "longitude": -87.955, "reviews.rating": 2.74, "Joy": 0.70800375, "Sadness": 0.6163585455, "name": "Extended Stay America - Chicago - Westmont - Oak Brook", "Analytical": 0.76216585, "Fear": 0.0, "country": "US", "address": "855 Pasquinelli Dr", "Anger": 0.6446675, "Tentative": 0.7963501, "Confident": 0.8700707692, "latitude": 41.81644}, {"province": "Choconut Center", "city": "Binghamton", "longitude": -75.905832, "reviews.rating": 4.0754716981, "Joy": 0.7076904524, "Sadness": 0.5704061667, "name": "Fairfield Inn By Marriott Binghamton", "Analytical": 0.70990824, "Fear": 0.523137, "country": "US", "address": "864", "Anger": 0.0, "Tentative": 0.8087885714, "Confident": 0.85411275, "latitude": 42.130338}, {"province": "NJ", "city": "Clifton", "longitude": 2.62598, "reviews.rating": 4.6666666667, "Joy": 0.7798623276, "Sadness": 0.5948336, "name": "Gran Melia Victoria", "Analytical": 0.7262442222, "Fear": 0.6291655, "country": "US", "address": "Avenida Joan Miro 21", "Anger": 0.560261, "Tentative": 0.7460911875, "Confident": 0.8378544643, "latitude": 39.5639}, {"province": "N Richland Hills", "city": "Haltom City", "longitude": -97.279915, "reviews.rating": 2.380952381, "Joy": 0.6605273333, "Sadness": 0.6104495714, "name": "Haltom Inn", "Analytical": 0.7341343333, "Fear": 0.0, "country": "US", "address": "4526 E Belknap St", "Anger": 0.529657, "Tentative": 0.7881668, "Confident": 0.851759, "latitude": 32.788714}, {"province": "CA", "city": "Livermore", "longitude": -121.77371, "reviews.rating": 3.96, "Joy": 0.7574883559, "Sadness": 0.5717446, "name": "Hawthorn Suites By Wyndham Livermore Wine Country", "Analytical": 0.7266730345, "Fear": 0.561017, "country": "US", "address": "1700 N Livermore Ave", "Anger": 0.523524, "Tentative": 0.784597125, "Confident": 0.8236178056, "latitude": 37.698349}, {"province": "Cottonwood Station", "city": "Chinle", "longitude": -109.547157, "reviews.rating": 3.9841269841, "Joy": 0.7441178372, "Sadness": 0.6606512222, "name": "Holiday Inn Canyon De Chelly", "Analytical": 0.6877247, "Fear": 0.558313, "country": "US", "address": "Bia Route 7 Garcia Trading Post", "Anger": 0.656964, "Tentative": 0.7622075, "Confident": 0.8706219444, "latitude": 36.151195}, {"province": "Bellefountain", "city": "Portland", "longitude": -84.99398, "reviews.rating": 4.3888888889, "Joy": 0.7149093333, "Sadness": 0.5706005, "name": "Holiday Inn Express & Suites Portland", "Analytical": 0.6979421667, "Fear": 0.0, "country": "US", "address": "100 Holiday Dr", "Anger": 0.0, "Tentative": 0.6943775, "Confident": 0.901292625, "latitude": 40.439227}, {"province": "IA", "city": "Humeston", "longitude": 11.251337, "reviews.rating": 4.5892857143, "Joy": 0.7744670638, "Sadness": 0.6965845, "name": "Hotel De La Ville", "Analytical": 0.656332375, "Fear": 0.0, "country": "US", "address": "Piazza Antinori 1", "Anger": 0.0, "Tentative": 0.8072805, "Confident": 0.88634356, "latitude": 43.772349}, {"province": "GA", "city": "Mableton", "longitude": 12.376187, "reviews.rating": 4.1071428571, "Joy": 0.7762053846, "Sadness": 0.533229, "name": "Hotel Russo Palace", "Analytical": 0.6797945, "Fear": 0.0, "country": "US", "address": "Riviera San Nicol 11/a", "Anger": 0.0, "Tentative": 0.738807375, "Confident": 0.8382525, "latitude": 45.421611}, {"province": "Elkhurst", "city": "Columbia", "longitude": -92.28914, "reviews.rating": 3.3384615385, "Joy": 0.6998645625, "Sadness": 0.5439066, "name": "Howard Johnson Inn Columbia", "Analytical": 0.7198048214, "Fear": 0.58185, "country": "US", "address": "3100 I 70 Doctor S E", "Anger": 0.0, "Tentative": 0.76317916, "Confident": 0.8339361875, "latitude": 38.96124}, {"province": "Plantation", "city": "Fort Lauderdale", "longitude": -80.331315, "reviews.rating": 3.6458333333, "Joy": 0.7356093434, "Sadness": 0.5849298182, "name": "La Quinta Inn and Suites Sunrise", "Analytical": 0.6867859574, "Fear": 0.713194, "country": "US", "address": "13600 N W 2nd St", "Anger": 0.62873, "Tentative": 0.7278296486, "Confident": 0.84763, "latitude": 26.123981}, {"province": "AZ", "city": "Tucson", "longitude": -110.909418, "reviews.rating": 3.8169014085, "Joy": 0.73873572, "Sadness": 0.5366786, "name": "La Quinta Inn and Suites Tucson - Reid Park", "Analytical": 0.6860154667, "Fear": 0.0, "country": "US", "address": "102 N Alvernon Way", "Anger": 0.595846, "Tentative": 0.7432479412, "Confident": 0.8932681852, "latitude": 32.223615}, {"province": "SD", "city": "Spearfish", "longitude": -103.81389, "reviews.rating": 4.2051282051, "Joy": 0.7956927143, "Sadness": 0.6023953333, "name": "Quality Inn Spearfish", "Analytical": 0.72296675, "Fear": 0.0, "country": "US", "address": "2725 1st Ave", "Anger": 0.609728, "Tentative": 0.7991823636, "Confident": 0.9133838889, "latitude": 44.48047}, {"province": "NC", "city": "Forest City", "longitude": -81.88776, "reviews.rating": 1.0, "Joy": 0.0, "Sadness": 0.53877, "name": "Ramada Inn", "Analytical": 0.0, "Fear": 0.0, "country": "US", "address": "2600 Us Highway 74a Byp", "Anger": 0.613629, "Tentative": 0.7311323333, "Confident": 0.0, "latitude": 35.330376}, {"province": "CA", "city": "Irvine", "longitude": -117.837279, "reviews.rating": 4.3863636364, "Joy": 0.7396194868, "Sadness": 0.56970275, "name": "Residence Inn By Marriott Irvine John Wayne Airport", "Analytical": 0.72329992, "Fear": 0.5461546667, "country": "US", "address": "2855 Main St", "Anger": 0.516886, "Tentative": 0.7415892105, "Confident": 0.8163882326, "latitude": 33.67971}, {"province": "CA", "city": "San Diego", "longitude": -117.150442, "reviews.rating": 4.2857142857, "Joy": 0.6930795, "Sadness": 0.0, "name": "Sheraton Mission Valley San Diego Hotel", "Analytical": 0.7345236667, "Fear": 0.0, "country": "US", "address": "1433 Camino Del Rio South", "Anger": 0.0, "Tentative": 0.7529936667, "Confident": 0.7752715, "latitude": 32.765811}, {"province": "SC", "city": "Columbia", "longitude": -81.02341, "reviews.rating": 2.0, "Joy": 0.6643321667, "Sadness": 0.5570803333, "name": "Super 8 Columbia Dwntwn Sc", "Analytical": 0.7704965714, "Fear": 0.0, "country": "US", "address": "5719 Fairfield Rd", "Anger": 0.590119, "Tentative": 0.648267, "Confident": 0.843988, "latitude": 34.06241}, {"province": "Pitt", "city": "Pittsburgh", "longitude": -79.7139, "reviews.rating": 2.9444444444, "Joy": 0.6806619091, "Sadness": 0.0, "name": "Super 8 Pittsburgh/monroeville", "Analytical": 0.6333466667, "Fear": 0.0, "country": "US", "address": "1807 Golden Mile Hwy", "Anger": 0.0, "Tentative": 0.7395802857, "Confident": 0.9079056, "latitude": 40.4461}, {"province": "Bunker Hill Village", "city": "Houston", "longitude": -95.459631, "reviews.rating": 4.7192982456, "Joy": 0.8270601346, "Sadness": 0.5489753333, "name": "The Houstonian Hotel", "Analytical": 0.6851337857, "Fear": 0.0, "country": "US", "address": "111 N Post Oak Ln", "Anger": 0.0, "Tentative": 0.8329548462, "Confident": 0.8683869545, "latitude": 29.768461}, {"province": "IN", "city": "Terre Haute", "longitude": 6.557915, "reviews.rating": 4.1764705882, "Joy": 0.8072618333, "Sadness": 0.6026985, "name": "Tryp Dusseldorf Krefeld Hotel", "Analytical": 0.7701841667, "Fear": 0.0, "country": "US", "address": "Europark Fichtenhain A1", "Anger": 0.0, "Tentative": 0.9434055, "Confident": 0.837199875, "latitude": 51.295746}]